{
  "data": [
    {
      "name": "台北捐血中心",
      "time": "每日08:00-17:00",
      "tel": "02-28971600",
      "address": "台北市北投區立德路123號",
      "location": "捷運忠義站、和信醫院旁"
    },
    {
      "name": "基隆捐血站",
      "time": "每日08:00-18:00(週一延長至19:00)",
      "tel": "02-24278500",
      "address": "基隆市信一路14號1樓",
      "location": ""
    },
    {
      "name": "板橋捐血站",
      "time": "每日08:00-18:00(週一延長至19:00)",
      "tel": "02-29524117",
      "address": "新北市板橋市中山路一段50巷36號2樓之4"
    },
    {
      "name": "關渡捐血室",
      "time": "每日08:00-17:00",
      "tel": "02-28971600#6141",
      "address": "台北市立德路123號",
      "location": "捷運忠義站和信醫院旁"
    },
    {
      "name": "南海捐血室",
      "time": "每日08:00-17:30",
      "tel": "02-23511601",
      "address": "台北市南海路1號3樓",
      "location": "捷運中正紀念堂站1號出口南門市場對面"
    },
    {
      "name": "市府捐血室",
      "time": "每日09:00-17:00(週日不作業)",
      "tel": "02-27208889#3383",
      "address": "台北市政府西大門內左側",
      "location": "捷運市政府站2號出口"
    },
    {
      "name": "長春捐血室",
      "time": "每日09:00-18:00(週日不作業)",
      "tel": "02-27314801",
      "address": "台北市復興北路69號5樓",
      "location": "捷運南京東路站"
    },
    {
      "name": "汐止捐血室",
      "time": "每日09:00-17:00(週二、六不作業)",
      "tel": "02-26428013",
      "address": "新北市汐止市新台五路一段234號6樓之1",
      "location": ""
    },
    {
      "name": "新店捐血室",
      "time": "每日09:00-17:00(週一延長至19:00,週日不作業)",
      "tel": "02-29128499",
      "address": "新北市新店區民族路167號",
      "location": "捷運七張站下車，轉乘耕莘醫院接駁車至捐血室或捷運大坪林站1號出口耕莘醫院停車場斜對面"
    },
    {
      "name": "三重捐血室",
      "time": "每日09:00-17:00(週一不作業)",
      "tel": "02-29862780",
      "address": "新北市三重市重新路三段81號3樓",
      "location": ""
    },
    {
      "name": "捷運捐血室",
      "time": "每日10:00-18:00(週一不作業)",
      "tel": "02-23706880",
      "address": "捷運台北車站B1七號出口誠品書店旁",
      "location": ""
    },
    {
      "name": "台北車站捐血點",
      "time": "每日09:30-17:30",
      "tel": "02-23143221",
      "address": "台北火車站大廳西北角",
      "location": ""
    },
    {
      "name": "台大號捐血車",
      "time": "每日09:00-17:00",
      "tel": "02-23644952",
      "address": "台北市新生南路台灣大學側門口",
      "location": "捷運公館站3號出口"
    },
    {
      "name": "公園號捐血車",
      "time": "每日09:00-18:00",
      "tel": "02-23811268",
      "address": "二二八和平公園襄陽路假山旁",
      "location": "捷運臺大醫院站4號出口"
    },
    {
      "name": "忠孝號捐血車",
      "time": "每日11:00-19:00(週一不作業)",
      "tel": "02-27512351",
      "address": "台北市大安路一段瑠公公園旁",
      "location": "捷運忠孝復興站4號出口往東區地下街14號出口瑠公公園旁"
    },
    {
      "name": "峨嵋號捐血車",
      "time": "每日13:00-21:00",
      "tel": "02-23751189",
      "address": "台北市峨嵋街立體停車場旁",
      "location": "捷運西門站6號出口"
    },
    {
      "name": "新莊號捐血車",
      "time": "每日10:00-18:00(週五不作業)",
      "tel": "02-89941488",
      "address": "新北市新莊市中華路一段+復興路一段交叉口",
      "location": "新莊運動公園旁、新莊站1號出口"
    },
    {
      "name": "捷運捐血室",
      "time": "每日10:00-18:00(週三休息)",
      "tel": "02-23706880",
      "address": "台北車站",
      "location": "台北車站B1M7出口,誠品書店旁步行5分鐘"
    },
    {
      "name": "新光站前號捐血庫",
      "time": "每日11:00-19:00",
      "tel": "0961-236683",
      "address": "台北市忠孝西路一段66號新光摩天大樓廣場前",
      "location": ""
    },
    {
      "name": "新店捐血室",
      "time": "每日09:00-17:00",
      "tel": "02-22188867",
      "address": "新北市民權路95號6樓之2",
      "location": ""
    },
    {
      "name": "中和號捐血庫",
      "time": "每日09:00-17:00(週六、日休息)",
      "tel": "02-29299437",
      "address": "新北市中安街圖書館旁823公園內",
      "location": "永安市場站步行約5分鐘"
    },
    {
      "name": "土城號捐血車",
      "time": "每日09:00-17:00(週六、日休息)",
      "tel": "02-82625140",
      "address": "新北市裕民路171巷裕民廣場內",
      "location": "海山站3號出口往裕民路方向步行約10分鐘"
    }
  ]
}